{"name":"Cizz Bizz Grillhouse D\u00f6ner Kebab Gauting","address":"August-H\u00f6rmann-Platz 2, Gauting","lat":48.0660243,"lon":11.3836106,"rating":4.3,"place_id":"ChIJVWd1XiDRnUcRyYHc4yNZDUM"}
{"name":"Stern D\u00f6ner Imbiss","address":"Bahnhofstra\u00dfe 22, Gauting","lat":48.0682688,"lon":11.3784021,"rating":4.7,"place_id":"ChIJ64vDZc7QnUcR1_tBKzqfE0o"}
{"name":"CAN\u2019S D\u00f6ner Gauting Kebabhaus","address":"Bahnhofstra\u00dfe 36, Gauting","lat":48.07002,"lon":11.37719,"rating":4.6,"place_id":"ChIJi8Id8c3QnUcRIaOgnHhfIPQ"}
{"name":"Mix kebaphaus No2","address":"Parking lot, Oskar-Von-Miller-Stra\u00dfe 1, Germering","lat":48.1316579,"lon":11.3716443,"rating":4.1,"place_id":"ChIJfQsr7kbWnUcRyqz-_wWjuNU"}
{"name":"D\u00f6ner & Burger Brothers","address":"Bahnhofpl. 8, Germering","lat":48.12945,"lon":11.36348,"rating":4.0,"place_id":"ChIJda7DRkLWnUcRP4x0rtMcbW4"}
{"name":"D\u00f6ner Mann","address":"Otto-Wagner-Stra\u00dfe 10, Germering","lat":48.1256591,"lon":11.3658531,"rating":4.7,"place_id":"ChIJ8WeYVEPWnUcRnIMEYHMNfz8"}
{"name":"Dio\u2018s Meal","address":"Lochhauser Str. 45, Puchheim","lat":48.1749496,"lon":11.3593823,"rating":3.5,"place_id":"ChIJuWVy6Ll5nkcRIxom8bGe3_Q"}
{"name":"Ariana Pizza Haus","address":"Bahnhofstra\u00dfe 2, Gr\u00f6benzell","lat":48.1958418,"lon":11.3733742,"rating":4.7,"place_id":"ChIJqRkpsUR5nkcRMD9LzHt5nEM"}
{"name":"Gourmet Ecke \u00d6zcan Akca","address":"Danziger Str. 17, Gr\u00f6benzell","lat":48.1858439,"lon":11.3873512,"rating":3.4,"place_id":"ChIJuxOnr-d4nkcRKkxT9ehZjCk"}
{"name":"Elias Pide & More","address":"Lochhauser Str. 18, Puchheim","lat":48.1732442,"lon":11.3554392,"rating":4.7,"place_id":"ChIJTcW5xAh5nkcRlJadGLVNz_o"}
{"name":"D\u00f6neria","address":"Kirchenstra\u00dfe 1, Gr\u00f6benzell","lat":48.1952204,"lon":11.373128,"rating":4.9,"place_id":"ChIJd2OTXst5nkcRSBNLeqY0Pdw"}
{"name":"Pita & Silie Holzofengenuss","address":"Lochhauser Str. 39, Puchheim","lat":48.174635,"lon":11.3581604,"rating":4.5,"place_id":"ChIJG1VatrV4nkcRbPAnva4bjFE"}
{"name":"Pizza Fantastico","address":"Olchinger Str. 90, Gr\u00f6benzell","lat":48.1870666,"lon":11.3821336,"rating":3.2,"place_id":"ChIJLcfGrt14nkcRaud5kg82GC0"}
{"name":"D\u00f6ner Paradies","address":"Kirchenstra\u00dfe 13, Gr\u00f6benzell","lat":48.1940837,"lon":11.3725636,"rating":4.6,"place_id":"ChIJ4R6Ov9d4nkcRlpuAhdwSoDI"}
{"name":"Timi Imbiss und mehr","address":"Industriestra\u00dfe 22, Gr\u00f6benzell","lat":48.18884,"lon":11.38349,"rating":5.0,"place_id":"ChIJTRlX3N14nkcRKi7x_QmKIIQ"}
{"name":"Pizza Familie","address":"Lochhauser Str. 35, Puchheim","lat":48.1743841,"lon":11.3576042,"rating":3.8,"place_id":"ChIJBzfnsrV4nkcRTkF_8xXaV-g"}
{"name":"Pizzeria Primavera","address":"Augsburger Str. 31A, Gr\u00f6benzell","lat":48.1938775,"lon":11.3665002,"rating":5.0,"place_id":"ChIJI01aPel5nkcRmxAsf-hLjRI"}
{"name":"Pizza Express Puchheim","address":"Alpenstra\u00dfe 4, Puchheim","lat":48.18004,"lon":11.36119,"rating":3.5,"place_id":"ChIJ--7TyNV4nkcRJZhmoO3TaOY"}
{"name":"Pizza Fantastico Royal","address":"Brucker Str. 26, Bergkirchen","lat":48.250488,"lon":11.3957813,"rating":4.1,"place_id":"ChIJ4wG9afJ7nkcRdw6hP4Zc6fE"}
{"name":"Planegger Kebaphaus","address":"Bahnhofstra\u00dfe 34, Planegg","lat":48.1046772,"lon":11.4170386,"rating":4.0,"place_id":"ChIJpxlDF3rXnUcRECGeNci4N2Y"}
{"name":"Frisches Kebab Haus Planegg","address":"Bahnhofstra\u00dfe 23, Planegg","lat":48.103801,"lon":11.41889,"rating":4.6,"place_id":"ChIJqZ--DRrXnUcRxilvZlU9Zok"}
{"name":"Sofra","address":"Aubinger Str. 2B, Gr\u00e4felfing","lat":48.1300489,"lon":11.4316735,"rating":4.7,"place_id":"ChIJp4WKO_PXnUcRmkkeeVh8PAo"}
{"name":"EssPoint Pide & Grill","address":"Bodenseestra\u00dfe 225, M\u00fcnchen","lat":48.1428168,"lon":11.4261989,"rating":3.9,"place_id":"ChIJ15L7u-DXnUcRpVb9neoBOSs"}
{"name":"Antalya D\u00f6ner","address":"Georg-B\u00f6hmer-Stra\u00dfe 1, M\u00fcnchen","lat":48.1559783,"lon":11.4160073,"rating":4.3,"place_id":"ChIJE1Oczcl5nkcRag01MOkhvLo"}
{"name":"Kumpes Kebap (Berliner D\u00f6ner)","address":"Limesstra\u00dfe 69, M\u00fcnchen","lat":48.1470772,"lon":11.4218376,"rating":4.5,"place_id":"ChIJT6r7j-DXnUcRY9M6Wpbrxpc"}
{"name":"03 Grill Haus M\u00fcnchen","address":"Bodenseestra\u00dfe 235, M\u00fcnchen","lat":48.1425098,"lon":11.4246681,"rating":4.3,"place_id":"ChIJIT7OJa_XnUcRWTiZtqC1Vto"}
{"name":"Limes Pizza","address":"Limesstra\u00dfe 70, M\u00fcnchen","lat":48.1461291,"lon":11.4218699,"rating":3.6,"place_id":"ChIJgf9AH3R4nkcRfZVzrlSXqMQ"}
{"name":"03 Kebap Haus","address":"Bodenseestra\u00dfe 129, M\u00fcnchen","lat":48.1443737,"lon":11.4373079,"rating":3.9,"place_id":"ChIJO1-8b_zXnUcRntRFMHb0PfY"}
{"name":"Yasmin Imbiss","address":"Schlei\u00dfheimer Str. 31, Dachau","lat":48.2579726,"lon":11.4421717,"rating":4.5,"place_id":"ChIJI5AtbE16nkcR_r54lACdSsI"}
{"name":"Caf\u00e8 Lieblingsstation \/ D\u00f6nerstation","address":"Bahnhofpl. 2, Dachau","lat":48.2542654,"lon":11.4439875,"rating":4.6,"place_id":"ChIJZ1j9CQl7nkcRlw72uGsH5f4"}
{"name":"Happy D\u00f6ner Pizza","address":"Mittermayerstra\u00dfe 16, Dachau","lat":48.2627169,"lon":11.4334996,"rating":4.3,"place_id":"ChIJ_eIm3Jx7nkcR8Vct7ARAMwo"}
{"name":"D\u00f6neria","address":"Augustenfelder Str. 2, Dachau","lat":48.2534702,"lon":11.4421268,"rating":4.4,"place_id":"ChIJPzF9hUt6nkcR2oRMeU-yDEI"}
{"name":"Dachauer-Pizza-Service","address":"Mittermayerstra\u00dfe 32, Dachau","lat":48.2634592,"lon":11.4350546,"rating":4.1,"place_id":"ChIJfcimmK57nkcRC_5KxoM92ho"}
{"name":"Saray Imbiss","address":"Fr\u00fchlingstra\u00dfe 30, Dachau","lat":48.2551115,"lon":11.4427612,"rating":4.4,"place_id":"ChIJwYncXEx6nkcR2pJuyfY8MYk"}
{"name":"Lara\u00b4s Eat&more","address":"Gr\u00f6benrieder Str. 21, Dachau","lat":48.2449141,"lon":11.4359874,"rating":3.9,"place_id":"ChIJsQsQ5md7nkcRzaOqrLf3g9M"}
{"name":"Deepak","address":"Gr\u00f6benrieder Str. 81, Dachau","lat":48.2414254,"lon":11.4315045,"rating":4.3,"place_id":"ChIJNzDgPc17nkcRv3IfX71K9mI"}
{"name":"Bakalikon griechische Taverne","address":"Augsburger Str. 12, Dachau","lat":48.260284,"lon":11.4329266,"rating":4.6,"place_id":"ChIJlSvTHq57nkcRtoYc3yNUMqU"}
{"name":"D\u00f6ner","address":"Kirchenstra\u00dfe 2, Baierbrunn","lat":48.0202204,"lon":11.4863965,"rating":0.0,"place_id":"ChIJUVuX9-zbnUcRf7EHpgFfqMg"}
{"name":"Akman\u2018s Grillhendl","address":"Hausergasse 2, Baierbrunn","lat":48.0212156,"lon":11.4870159,"rating":5.0,"place_id":"ChIJD9KTZiDbnUcRbpIHW9VrNFw"}
{"name":"M\u00fcnchen's Kebap House","address":"Neurieder Str. 16, M\u00fcnchen","lat":48.0873915,"lon":11.4845434,"rating":4.2,"place_id":"ChIJIe8TOAzZnUcRHnLgdYebCNc"}
{"name":"Neuried Kebap Haus","address":"Forstenrieder Str. 4A, Neuried","lat":48.0928031,"lon":11.4661625,"rating":4.2,"place_id":"ChIJ24Ou36TZnUcR17ViYF_BuKw"}
{"name":"Elemu D\u00f6ner - M\u00fcnchen","address":"Sauerbruchstra\u00dfe 2, M\u00fcnchen","lat":48.1153033,"lon":11.476723,"rating":3.3,"place_id":"ChIJ90wOgSHZnUcRzFcYyVUyBes"}
{"name":"K\u00f6nig Kebap Haus","address":"Terofalstra\u00dfe 6, M\u00fcnchen","lat":48.1258698,"lon":11.4761713,"rating":4.7,"place_id":"ChIJBQubQGjYnUcRGgOr5onVNQw"}
{"name":"Kebap Garten","address":"Pfingstrosenstra\u00dfe 89, M\u00fcnchen","lat":48.1084723,"lon":11.4762044,"rating":4.6,"place_id":"ChIJaR1m6lPYnUcRwE0LvsINcg0"}
{"name":"La Casa de Kebab","address":"Lochhamer Str. 31, Planegg","lat":48.113167,"lon":11.4506309,"rating":4.6,"place_id":"ChIJgSMqXG_ZnUcRKCzLWkn_b4w"}
{"name":"Babylon D\u00f6ner Kebab","address":"Landsberger Str. 449, M\u00fcnchen","lat":48.1452613,"lon":11.4710125,"rating":2.2,"place_id":"ChIJUyLrQebZnUcRkwYnQOBbX8w"}
{"name":"Pasing Kebap&More","address":"Gleichmannstra\u00dfe 3, M\u00fcnchen","lat":48.147167,"lon":11.4596472,"rating":4.5,"place_id":"ChIJs1JzkP93nkcRM0fEH9y-r_g"}
{"name":"Wiesenwald Hendl u. D\u00f6ner","address":"B\u00e4ckerstra\u00dfe 6, M\u00fcnchen","lat":48.1474454,"lon":11.4610433,"rating":3.7,"place_id":"ChIJAbK4teJ3nkcRAaSLgaUKkPQ"}
{"name":"T\u00dcRKITCH K\u00f6fte & Kebap","address":"Pasinger Bahnhofspl. 1, M\u00fcnchen","lat":48.1487079,"lon":11.4603735,"rating":3.8,"place_id":"ChIJ40KUmPx3nkcRhufs73q3l2c"}
{"name":"Orients Gem\u00fcse Kebap - D\u00f6ner Pasing","address":"Pippinger Str. 25, M\u00fcnchen","lat":48.1526913,"lon":11.4564406,"rating":5.0,"place_id":"ChIJn52HCGJ3nkcREERACt9aCFU"}
{"name":"Pasti Pesto D\u00f6ner","address":"Paul-Gerhardt-Allee 30-32, M\u00fcnchen","lat":48.1519952,"lon":11.4767579,"rating":4.5,"place_id":"ChIJuwNrnN13nkcRjZlvjfgJcu4"}
{"name":"prime Kebap Pasing","address":"Landsberger Str. 529, M\u00fcnchen","lat":48.146509,"lon":11.4595536,"rating":4.5,"place_id":"ChIJwV6_V_13nkcRMUFT6dkFwi8"}
{"name":"Grillexpress","address":"Josef-Lang-Stra\u00dfe 12, M\u00fcnchen","lat":48.1510224,"lon":11.4719918,"rating":4.8,"place_id":"ChIJA73Z9r53nkcRb7tD0EC1Dzo"}
{"name":"Haji Baba","address":"Munich","lat":48.1475141,"lon":11.4612158,"rating":4.2,"place_id":"ChIJP8Qv2iB3nkcRClqGSxPRN04"}
{"name":"Crispy & More","address":"Pasinger Bahnhofspl. 5, M\u00fcnchen","lat":48.1475357,"lon":11.463532,"rating":4.2,"place_id":"ChIJhZ61x0x3nkcRQkgqu3pF0kQ"}
{"name":"Feinkost Gulet","address":"Pasinger Bahnhofspl. 8, M\u00fcnchen","lat":48.1505353,"lon":11.4619772,"rating":4.2,"place_id":"ChIJ8QwvK_13nkcRZFOvgCS_o8I"}
{"name":"Harem Restaurant","address":"Allacher Str. 177, M\u00fcnchen","lat":48.1797649,"lon":11.4855642,"rating":4.3,"place_id":"ChIJX0yyR593nkcRPB8l_qiR2Io"}
{"name":"D\u00f6ner Deluxe am S-Bahnhof Allach","address":"Oertelplatz 4, M\u00fcnchen","lat":48.1903028,"lon":11.4672685,"rating":4.2,"place_id":"ChIJhePbb353nkcRVtxrfCDrP_c"}
{"name":"K\u00f6fteci Grillhaus","address":"Elly-Staegmeyr-Stra\u00dfe 7a, M\u00fcnchen","lat":48.1835819,"lon":11.4686274,"rating":5.0,"place_id":"ChIJm5Pabdd3nkcRhsQ6IbfSbPw"}
{"name":"Manzo Imbiss M\u00fcnchen","address":"Manzostra\u00dfe 37a, M\u00fcnchen","lat":48.1835963,"lon":11.4789295,"rating":4.6,"place_id":"ChIJYzbTsu13nkcR9xQZpMyF12w"}
{"name":"Sermins Kebap&More","address":"Oertelplatz 13, M\u00fcnchen","lat":48.1886493,"lon":11.4676261,"rating":3.8,"place_id":"ChIJYSFDIJt5nkcRhUX5GpnucP4"}
{"name":"Ye Doy - D\u00f6ner Kebap","address":"Rathausstra\u00dfe 23, Karlsfeld","lat":48.2278703,"lon":11.4671327,"rating":4.9,"place_id":"ChIJ83f5D2V7nkcROMnpzWHtALg"}
{"name":"Pizzalaguna Karlsfeld","address":"Rathausstra\u00dfe 9, Karlsfeld","lat":48.2286079,"lon":11.4659504,"rating":4.3,"place_id":"ChIJ8ZmpJh16nkcRvl7k1WzsJaU"}
{"name":"K\u00f6nig Kebap","address":"Kopernikusstra\u00dfe 2, Dachau","lat":48.2609856,"lon":11.4746673,"rating":4.7,"place_id":"ChIJ78X29WN6nkcRsdR4sMIHVLA"}
{"name":"Kebabhaus (im Kaufland)","address":"Gewerbegebiet Dachau-Ost 4, Danziger Str. 1, Dachau","lat":48.2584672,"lon":11.4671331,"rating":3.0,"place_id":"ChIJSa3klmd6nkcRQuYXDIhyVlI"}
{"name":"D\u00f6ner'im 27 Kebab Haus","address":"Sudetenlandstra\u00dfe 29, Dachau","lat":48.2646564,"lon":11.4580765,"rating":4.8,"place_id":"ChIJsZvudP3fnUcRmp0Qir49Y8Y"}
{"name":"1001 Nacht","address":"Sudetenlandstra\u00dfe 45, Dachau","lat":48.2641487,"lon":11.4597527,"rating":4.4,"place_id":"ChIJvxWgGll6nkcREzHnKI6wFvc"}
{"name":"Schaz Kebab Haus","address":"AEZ Einkaufszentrum, Fraunhoferstra\u00dfe 1, Dachau","lat":48.2632143,"lon":11.4706186,"rating":4.9,"place_id":"ChIJx8ZVbJR7nkcRRbzG6t5LcuQ"}
{"name":"Imbiss 77","address":"Rudolf-Diesel-Stra\u00dfe 5, Dachau","lat":48.2641169,"lon":11.4741778,"rating":4.8,"place_id":"ChIJp9tgkWF6nkcRZFH_bwb-hOA"}
{"name":"Kopernikus Grill","address":"Kopernikusstra\u00dfe 15, Dachau","lat":48.2588561,"lon":11.4757769,"rating":0.0,"place_id":"ChIJF8XuWmR6nkcRRa86NcUIukg"}
{"name":"Patatos & Kumpir","address":"Berliner Str. 16, Dachau","lat":48.2591175,"lon":11.4587391,"rating":4.9,"place_id":"ChIJU08Fw2F7nkcR9yGn4uItULk"}
{"name":"Lezizel Manti - Dachau","address":"Kopernikusstra\u00dfe 6, Dachau","lat":48.2605568,"lon":11.4742813,"rating":5.0,"place_id":"ChIJXTF7MdZ7nkcRP7gcBXh60JI"}
{"name":"Bella Pizza","address":"Sudetenlandstra\u00dfe 56, Dachau","lat":48.2628747,"lon":11.4630653,"rating":3.9,"place_id":"ChIJLyyIvl56nkcRpbm3HXgNRjo"}
{"name":"Gr\u00fcnwalder Kebabhaus","address":"Emil-Geis-Stra\u00dfe 1a, Gr\u00fcnwald","lat":48.0399062,"lon":11.5213919,"rating":3.9,"place_id":"ChIJVWlwqhLcnUcR1M1T15BbM88"}
{"name":"Pullacher D\u00f6ner und Pizzahaus","address":"Gartenstra\u00dfe 2, Pullach im Isartal","lat":48.0578579,"lon":11.5214778,"rating":4.0,"place_id":"ChIJnxn9yvHdnUcRUbiDT3OaFic"}
{"name":"Al Losch D\u00f6ner H\u00e4hnchen Grill","address":"Boschetsrieder Str. 130, M\u00fcnchen","lat":48.0984303,"lon":11.5132847,"rating":4.2,"place_id":"ChIJ-W6uKyfZnUcRE2i5WXP0jyk"}
{"name":"SANDIS KEBAB IMBISS","address":"Meglingerstra\u00dfe 6, M\u00fcnchen","lat":48.0937344,"lon":11.506347,"rating":4.5,"place_id":"ChIJKYzJ-SLZnUcRulOURApkd2c"}
{"name":"Nazar Imbiss","address":"Geisenhausenerstra\u00dfe 6, M\u00fcnchen","lat":48.0974588,"lon":11.5195861,"rating":3.4,"place_id":"ChIJhbhODbfZnUcR5qdZ_Ekb4wk"}
{"name":"Roni D\u00f6nerwerk","address":"Christel-K\u00fcpper-Platz 5, M\u00fcnchen","lat":48.0976355,"lon":11.5088137,"rating":4.7,"place_id":"ChIJcS1rlU3ZnUcRyGSVgqsnJqM"}
{"name":"FOOD FACTORY","address":"Z\u00fcricher Str. 37, M\u00fcnchen","lat":48.0945989,"lon":11.4992273,"rating":4.6,"place_id":"ChIJNWpD3ETZnUcRVgCX_Y5xQxU"}
{"name":"Sendling's Spezial Kebap House","address":"Kistlerhofstra\u00dfe 88, M\u00fcnchen","lat":48.0951877,"lon":11.5220291,"rating":4.6,"place_id":"ChIJ9wZaLinZnUcRB673TZwpqlA"}
{"name":"Sollner Kebap Haus","address":"Wolfratshauser Str. 202, M\u00fcnchen","lat":48.0817687,"lon":11.5293418,"rating":4.6,"place_id":"ChIJ1_LJq8venUcRxKyyEif4SJg"}
{"name":"Melone Saftbar","address":"Hofmannstra\u00dfe 13, M\u00fcnchen","lat":48.1005396,"lon":11.5294542,"rating":4.5,"place_id":"ChIJyyHWotXYnUcR1pWtDAiddtk"}
{"name":"Zielstatt-Bistro","address":"Zielstattstra\u00dfe 63, M\u00fcnchen","lat":48.1023425,"lon":11.5277303,"rating":3.5,"place_id":"ChIJIZZPVw3ZnUcRTE6ntVYCYq0"}
{"name":"Machtlfinger Grillbox","address":"Machtlfinger Str. 12, M\u00fcnchen","lat":48.0961051,"lon":11.513526,"rating":4.0,"place_id":"ChIJH69WxybZnUcR5AJJ77p24Cc"}
{"name":"Die Schatztruhe","address":"Helfenriederstra\u00dfe 12, M\u00fcnchen","lat":48.0972304,"lon":11.5175237,"rating":5.0,"place_id":"ChIJ7z9wwyDZnUcRjrqMZK-qLqM"}
{"name":"Der Baba D\u00f6ner K\u00f6fte Salonu","address":"Albert-Ro\u00dfhaupter-Stra\u00dfe 72\/a, M\u00fcnchen","lat":48.1168842,"lon":11.5291136,"rating":4.3,"place_id":"ChIJO_sMX8jYnUcRd1uFCwiVBNI"}
{"name":"Westend D\u00f6ner","address":"Westendstra\u00dfe 193, M\u00fcnchen","lat":48.1338976,"lon":11.5226547,"rating":4.5,"place_id":"ChIJ7ww_P6LYnUcRDSGUHqD8VAU"}
{"name":"M D\u00f6ner","address":"F\u00fcrstenrieder Str. 206, M\u00fcnchen","lat":48.1214281,"lon":11.5021564,"rating":4.6,"place_id":"ChIJgziQ7szZnUcRAyDnjoT1jBc"}
{"name":"Dizza Pizza-D\u00f6ner Imbiss","address":"F\u00fcrstenrieder Str. 92, M\u00fcnchen","lat":48.1322309,"lon":11.5024759,"rating":4.6,"place_id":"ChIJJXHai4XYnUcRygvoGNvKoWQ"}
{"name":"Laden laden","address":"Hansastra\u00dfe 6 6, M\u00fcnchen","lat":48.135025,"lon":11.5250951,"rating":3.9,"place_id":"ChIJY21xTEHZnUcRWg6Y-R6iETA"}
{"name":"Frische Grillhendl und D\u00f6ner","address":"F\u00fcrstenrieder Str. 74, M\u00fcnchen","lat":48.1348072,"lon":11.5027128,"rating":4.9,"place_id":"ChIJbcRIrXnZnUcRyhRxVd_nkww"}
{"name":"Kebabo","address":"Hansastra\u00dfe 148A, M\u00fcnchen","lat":48.11838,"lon":11.53379,"rating":4.3,"place_id":"ChIJGSvE-8nYnUcR4_BWZYvJ2KM"}
{"name":"Riviera Pizza M\u00fcnchen","address":"Zschokkestra\u00dfe 63, M\u00fcnchen","lat":48.1348717,"lon":11.5107205,"rating":4.0,"place_id":"ChIJTaBDDZvYnUcRvd-3Ok69R4Y"}
{"name":"H\u00e4hnchen- und D\u00f6ner-Verkaufswagen","address":"Fachnerstra\u00dfe 56, M\u00fcnchen","lat":48.1313677,"lon":11.5092799,"rating":4.4,"place_id":"ChIJJQLwXuPZnUcR27jEy-r3F28"}
{"name":"Feinkost Ba\u015fak","address":"Guardinistra\u00dfe 96, M\u00fcnchen","lat":48.1194886,"lon":11.4915509,"rating":3.5,"place_id":"ChIJTWqCtvXYnUcRwdhMyStJFB4"}
{"name":"Lades D\u00f6ner","address":"F\u00fcrstenrieder Str. 54, M\u00fcnchen","lat":48.1366575,"lon":11.5026775,"rating":4.3,"place_id":"ChIJY1zAy3rZnUcRWUIYwavBKUU"}
{"name":"Nil D\u00f6ner-Pizza","address":"Elsenheimerstra\u00dfe 57, M\u00fcnchen","lat":48.1367897,"lon":11.5235067,"rating":2.6,"place_id":"ChIJ_UpQ_2jZnUcRm5yGyPH1ULU"}
{"name":"Avesta Pizza & D\u00f6ner","address":"Landsberger Str. 129, M\u00fcnchen","lat":48.140003,"lon":11.5310172,"rating":4.4,"place_id":"ChIJ0Tg15gV3nkcR4NSi57jhsYg"}
{"name":"K\u00f6z Grill Restaurant","address":"Wendl-Dietrich-Stra\u00dfe 11, M\u00fcnchen","lat":48.1522286,"lon":11.5303486,"rating":4.0,"place_id":"ChIJkySQaM13nkcRXHUwpvIW4b8"}
{"name":"Alis Gem\u00fcsed\u00f6ner","address":"Rotkreuzpl. 1, M\u00fcnchen","lat":48.1525198,"lon":11.5339132,"rating":3.8,"place_id":"ChIJPwmPMGx3nkcRWlOyG6NPo04"}
{"name":"Laimer Kebap Haus","address":"Landsberger Str. 317, M\u00fcnchen","lat":48.1433626,"lon":11.4976238,"rating":4.4,"place_id":"ChIJSd07T9V3nkcRJNX5O8Co53c"}
{"name":"Beste D\u00f6ner Laim","address":"F\u00fcrstenrieder Str. 28a, M\u00fcnchen","lat":48.1394745,"lon":11.5027823,"rating":3.5,"place_id":"ChIJmSpmeIHYnUcRcobNc_FZysc"}
{"name":"Chilli Kebaphaus","address":"Wotanstra\u00dfe 89, M\u00fcnchen","lat":48.1528119,"lon":11.5074667,"rating":3.4,"place_id":"ChIJ7d5oX3N3nkcRsj3NV-w83mk"}
{"name":"Pastipesto Feinkost & D\u00f6ner","address":"Romanpl., M\u00fcnchen","lat":48.1555168,"lon":11.5119,"rating":3.8,"place_id":"ChIJv0_oq993nkcRctBikN0ulX8"}
{"name":"Arkadas Kebap","address":"Wendl-Dietrich-Stra\u00dfe 17, M\u00fcnchen","lat":48.1520811,"lon":11.5290478,"rating":4.5,"place_id":"ChIJoawkLRZ2nkcRbtyIE6Zyau8"}
{"name":"Grillstation Gucuko Food Truck","address":"Friedenheimer Str. 5, M\u00fcnchen","lat":48.1417422,"lon":11.5125404,"rating":0.0,"place_id":"ChIJsUZfKUZ3nkcRA8ia648bHXg"}
{"name":"ENFES Grillhouse","address":"Baubergerstra\u00dfe 32, M\u00fcnchen","lat":48.1763783,"lon":11.5046297,"rating":4.8,"place_id":"ChIJfXH0azt3nkcRWspEHJ8pg7s"}
{"name":"Uyghur D\u00f6ner","address":"Hanauer Str. 75, M\u00fcnchen","lat":48.1832118,"lon":11.5303877,"rating":4.0,"place_id":"ChIJvTuJF_d2nkcRSFG5Z2IClAA"}
{"name":"KEB UP","address":"Hanauer Str. 81, M\u00fcnchen","lat":48.1839442,"lon":11.5310053,"rating":3.5,"place_id":"ChIJB4JxL_d2nkcRBJkwAshsBk0"}
{"name":"Loko's Kebab","address":"Pelkovenstra\u00dfe 42, M\u00fcnchen","lat":48.1812789,"lon":11.513057,"rating":3.6,"place_id":"ChIJh62Ci353nkcRZHUkqF0BEjk"}
{"name":"Sultan\u0131m D\u00f6ner Imb\u0131ss","address":"Allacher Str. 80, M\u00fcnchen","lat":48.1784687,"lon":11.4966613,"rating":4.5,"place_id":"ChIJ0dGYihJ3nkcRwx9qYXqi3o0"}
{"name":"Moosacher Imbiss II","address":"Bunzlauer Str. 10, M\u00fcnchen","lat":48.1802042,"lon":11.5075115,"rating":3.9,"place_id":"ChIJV6CWJKp3nkcRQQCbEbNsF8I"}
{"name":"GOURM-ET","address":"Bunzlauer Pl. 5-7, M\u00fcnchen","lat":48.1785176,"lon":11.5053497,"rating":4.5,"place_id":"ChIJdXf2t3F3nkcRqN29y8X14EU"}
{"name":"Hasi KITCHEN","address":"Dachauer Str. 539, M\u00fcnchen","lat":48.1918688,"lon":11.5019208,"rating":4.7,"place_id":"ChIJt1aq0g93nkcRA6_4njzkX7Q"}
{"name":"Heray (D\u00f6ner, Pizza & More)","address":"Boschetsrieder Str. 5, M\u00fcnchen","lat":48.1005207,"lon":11.5406234,"rating":4.4,"place_id":"ChIJQyIQfV3fnUcRfyhtdpbhg24"}
{"name":"Mekan Restaurant & Grillhouse","address":"Waakirchner Str. 33, M\u00fcnchen","lat":48.1008186,"lon":11.536826,"rating":4.7,"place_id":"ChIJB42SFEnfnUcR26ZKmITiydM"}
{"name":"Meister D\u00f6ner","address":"Naupliastra\u00dfe 18, M\u00fcnchen","lat":48.0973028,"lon":11.5791574,"rating":4.4,"place_id":"ChIJW0iyTA_fnUcRZswop_8Q1DI"}
{"name":"Alpen Imbiss","address":"Thalkirchner Str. 2, M\u00fcnchen","lat":48.1326077,"lon":11.5667494,"rating":3.8,"place_id":"ChIJP2UqzF7fnUcRbSRVSS08Pto"}
{"name":"Emsa D\u00f6ner","address":"Kapuzinerstra\u00dfe 8, M\u00fcnchen","lat":48.1275291,"lon":11.5566717,"rating":4.6,"place_id":"ChIJFWr6E1DfnUcRAhS4fRml6Ss"}
{"name":"M43 D\u00f6ner","address":"M\u00fcllerstra\u00dfe 43, M\u00fcnchen","lat":48.1312735,"lon":11.5684713,"rating":4.1,"place_id":"ChIJkQwSjl7fnUcRqMfQX4FeLZo"}
{"name":"Akse - Fein & Food","address":"Gr\u00fcnwalder Str. 11, M\u00fcnchen","lat":48.1101062,"lon":11.5757568,"rating":4.6,"place_id":"ChIJKfQEGhLfnUcRicBcpbUwXWM"}
{"name":"Beste D\u00f6ner Wettersteinplatz","address":"2. Stock, Wettersteinpl. 2\/2. Stock, M\u00fcnchen","lat":48.1096126,"lon":11.5756597,"rating":4.4,"place_id":"ChIJUSWS6j_fnUcRWal3_TgrOdI"}
{"name":"S\u0131la Restaurant Sendlinger-Tor-Platz 8, 80336 M\u00fcnchen. 23 hours open","address":"Sendlinger-Tor-Platz 8, M\u00fcnchen","lat":48.1340013,"lon":11.5655947,"rating":3.3,"place_id":"ChIJD_VnwljfnUcRHNDHsvIjE9A"}
{"name":"Best D\u00f6ner Kebap","address":"Plinganserstra\u00dfe 19, M\u00fcnchen","lat":48.1198192,"lon":11.5407568,"rating":4.6,"place_id":"ChIJGc4BMbXYnUcRdE5rPvowcbo"}
{"name":"Kebab Haus","address":"Pilgersheimer Str. 42, M\u00fcnchen","lat":48.1159937,"lon":11.5728684,"rating":4.4,"place_id":"ChIJVVVloGzfnUcR0ypustOOt-8"}
{"name":"Pinguin D\u00f6ner","address":"Implerstra\u00dfe 12A, M\u00fcnchen","lat":48.1223823,"lon":11.5482715,"rating":3.7,"place_id":"ChIJj-39B0zfnUcRJpNJbmN46ZA"}
{"name":"D\u00f6ner d\u00fcr\u00fcm","address":"Albert-Ro\u00dfhaupter-Stra\u00dfe 14, M\u00fcnchen","lat":48.1170084,"lon":11.5365257,"rating":4.2,"place_id":"ChIJV1lyRaHZnUcROvA3rxA9yoo"}
{"name":"Kekes No. 1 D\u00f6ner","address":"Poccistra\u00dfe 2, M\u00fcnchen","lat":48.1254239,"lon":11.54982,"rating":3.9,"place_id":"ChIJsZ2fUOnfnUcRlfpj9lEXi4E"}
{"name":"Lokanta Kebap & Falafel","address":"Am Harras 15, M\u00fcnchen","lat":48.1173867,"lon":11.5397042,"rating":4.3,"place_id":"ChIJQTj2M0DZnUcRBToq9Z5LiKQ"}
{"name":"Chicco's","address":"Ganghoferstra\u00dfe 25, M\u00fcnchen","lat":48.1341616,"lon":11.5400432,"rating":4.6,"place_id":"ChIJj758XKnYnUcR2kB-ypImY8E"}
{"name":"Lust auf D\u00f6ner","address":"Tegernseer Landstra\u00dfe 137, M\u00fcnchen","lat":48.1115233,"lon":11.5770363,"rating":4.4,"place_id":"ChIJI_2IhRLfnUcR4Xzc50UJ6o8"}
{"name":"Aladdins Futterh\u00fcttn","address":"Georg-Kronawitter-Platz 1, M\u00fcnchen","lat":48.136752,"lon":11.572491,"rating":4.4,"place_id":"ChIJ48nit2p1nkcRhKqzcywcRJI"}
{"name":"Doner Kebap","address":"Lindenschmitstra\u00dfe 33, M\u00fcnchen","lat":48.1182709,"lon":11.5415372,"rating":4.5,"place_id":"ChIJ-VK_qErfnUcRnihE39Kmm9Y"}
{"name":"Crispy & More","address":"Herzog-Heinrich-Stra\u00dfe, M\u00fcnchen","lat":48.1288114,"lon":11.5554152,"rating":4.3,"place_id":"ChIJNb0CUVDfnUcRCAmatpIQFxc"}
{"name":"Antalya Imbiss","address":"Bergmannstra\u00dfe 50, M\u00fcnchen","lat":48.1335985,"lon":11.5366841,"rating":4.5,"place_id":"ChIJ-5q706jYnUcRRkluiaJjYmU"}
{"name":"Istanbul Imbiss 2","address":"Alter Messepl. 4, M\u00fcnchen","lat":48.1347858,"lon":11.5463151,"rating":4.4,"place_id":"ChIJFZC2NH3ZnUcR1MtsIUtQwdg"}
{"name":"Istanbul Imbiss D\u00f6ner Kebap","address":"Arnulfstra\u00dfe 16, M\u00fcnchen","lat":48.1419368,"lon":11.5581141,"rating":3.3,"place_id":"ChIJ95N4dwZ1nkcR0HOhChBI-CI"}
{"name":"Helin D\u00f6ner","address":"Bayerstra\u00dfe 9, M\u00fcnchen","lat":48.1392234,"lon":11.5629395,"rating":3.8,"place_id":"ChIJRTq6UJl1nkcRsZ0VE2cXxhw"}
{"name":"Torros Kebap Torros grill house","address":"Barer Str. 65, M\u00fcnchen","lat":48.1529537,"lon":11.5743079,"rating":4.0,"place_id":"ChIJX_YMZ1l1nkcR6-pLb5S9SiA"}
{"name":"Sindbad Kebap & Grillhaus","address":"Theresienstra\u00dfe 59, M\u00fcnchen","lat":48.1508966,"lon":11.5646573,"rating":3.8,"place_id":"ChIJDwiFeOZ1nkcRdGoUm4cy_SI"}
{"name":"Orient D\u00f6ner","address":"Hohenzollernstra\u00dfe 103, M\u00fcnchen","lat":48.1609284,"lon":11.5665883,"rating":3.9,"place_id":"ChIJPzBoi9t1nkcRc2e6B0Qywhg"}
{"name":"Mahlzeit - D\u00f6ner, Falafel, Pide","address":"Nymphenburger Str. 156, M\u00fcnchen","lat":48.1526848,"lon":11.5347889,"rating":3.5,"place_id":"ChIJe939tRZ2nkcRVIyUdNfVEnk"}
{"name":"Torros doner grill house","address":"Barer Str. 63, M\u00fcnchen","lat":48.1528237,"lon":11.5742785,"rating":4.0,"place_id":"ChIJlQ16sZl1nkcReWJU8hE4VT0"}
{"name":"OLIVA Stachus","address":"Karlsplatz 1 UG, M\u00fcnchen","lat":48.1393556,"lon":11.5653758,"rating":2.2,"place_id":"ChIJpT-q0fZ1nkcR0aQ8Zw_RAeA"}
{"name":"D\u00f6ner Deluxe","address":"Dachauer Str. 25, M\u00fcnchen","lat":48.1443512,"lon":11.5596282,"rating":4.1,"place_id":"ChIJiXKYbvt1nkcROr9GRIFb3mU"}
{"name":"Mamas Kebap Haus","address":"Theresienstra\u00dfe 124, M\u00fcnchen","lat":48.1511705,"lon":11.5645862,"rating":4.2,"place_id":"ChIJcfmJZmt1nkcRRRK-htdbAgQ"}
{"name":"T\u00dcRKITCH K\u00f6fte & Kebap","address":"Bahnhofpl. 1, M\u00fcnchen","lat":48.1399375,"lon":11.561953,"rating":4.2,"place_id":"ChIJV_Zs4NR1nkcRd2TU2g1twks"}
{"name":"oliva restaurant","address":"Arnulfstra\u00dfe 17, M\u00fcnchen","lat":48.1421751,"lon":11.5502981,"rating":2.0,"place_id":"ChIJe_NuqwB2nkcRNLXp0TZsxBs"}
{"name":"Best D\u00f6ner & Falafel","address":"Trappentreustra\u00dfe 17, M\u00fcnchen","lat":48.1377812,"lon":11.5347228,"rating":4.7,"place_id":"ChIJIdaH6KfYnUcRorGAyMjxvm0"}
{"name":"T\u00dcRKITCH K\u00f6fte & Kebap","address":"T\u00fcrkenstra\u00dfe 21, M\u00fcnchen","lat":48.1487443,"lon":11.5748304,"rating":4.2,"place_id":"ChIJue3Rfph1nkcR-Fy5dJ-8zIQ"}
{"name":"Ali Baba Restaurant GmbH Inhaber H\u00fcseyin Karakoc","address":"Schillerstra\u00dfe 6, M\u00fcnchen","lat":48.1386717,"lon":11.5610327,"rating":3.5,"place_id":"ChIJ2RLsOPIBCUERx_eHvbdIcRE"}
{"name":"Best Jasim's Imbiss","address":"Schwanthalerstra\u00dfe 164, M\u00fcnchen","lat":48.1379454,"lon":11.543243,"rating":4.3,"place_id":"ChIJWQMiCKrYnUcRcahzt79LLXw"}
{"name":"Turka Kebap","address":"Amalienstra\u00dfe 49, M\u00fcnchen","lat":48.149219,"lon":11.577523,"rating":4.3,"place_id":"ChIJfeZCm-x1nkcR01PDyidAbLE"}
{"name":"Slemani Grill","address":"Dachauer Str. 7, M\u00fcnchen","lat":48.1423829,"lon":11.5601198,"rating":4.0,"place_id":"ChIJLWUTyPt1nkcRZ-qaRWqDEAI"}
{"name":"Da Tonino & Luigi Pizzeria M\u00fcnchen","address":"Schlei\u00dfheimer Str. 104, M\u00fcnchen","lat":48.1569231,"lon":11.5623332,"rating":4.2,"place_id":"ChIJ-39WEN51nkcRHsSgo2pae-s"}
{"name":"pera","address":"Helene-Mayer-Ring 6, M\u00fcnchen","lat":48.1807305,"lon":11.5534447,"rating":4.6,"place_id":"ChIJf4jxJoZ2nkcR9Szay0k3GvQ"}
{"name":"RAMO Adana Kebab M\u00fcnchen","address":"Riesenfeldstra\u00dfe 10, M\u00fcnchen","lat":48.1769923,"lon":11.5653537,"rating":4.2,"place_id":"ChIJYzYDkkZ1nkcR6LGiATrEHnc"}
{"name":"VIP D\u00f6ner Imbiss","address":"Riesenfeldstra\u00dfe 77, M\u00fcnchen","lat":48.1860226,"lon":11.562193,"rating":4.3,"place_id":"ChIJAc_0ALR3nkcRHr0P64achrE"}
{"name":"D\u00f6nerTreff","address":"Lerchenauer Str. 65-67, M\u00fcnchen","lat":48.1800482,"lon":11.5555435,"rating":3.8,"place_id":"ChIJnVkiUIZ2nkcRIdPvy77toFc"}
{"name":"Esto Cafe Bar","address":"Knorrstra\u00dfe 89, M\u00fcnchen","lat":48.1868022,"lon":11.5724922,"rating":3.2,"place_id":"ChIJt5C34_V1nkcRJEVybyDp6Yc"}
{"name":"Elite Grill","address":"Preu\u00dfenstra\u00dfe 6, M\u00fcnchen","lat":48.1835449,"lon":11.5553029,"rating":4.5,"place_id":"ChIJu1YsD8F3nkcRmbPWWq2M1GU"}
{"name":"Olympia Pizza Haus","address":"Helene-Mayer-Ring 19, M\u00fcnchen","lat":48.1818066,"lon":11.5526411,"rating":3.7,"place_id":"ChIJEW3qtoh2nkcRgv-2Tni7oso"}
{"name":"Ora Kebap","address":"Moosacher Str. 23, M\u00fcnchen","lat":48.1866529,"lon":11.56151,"rating":4.5,"place_id":"ChIJxVa11tB3nkcRU7fQV555TDY"}
{"name":"Lotus Kebab","address":"Korbinianstra\u00dfe 60, M\u00fcnchen","lat":48.1872581,"lon":11.5697528,"rating":4.8,"place_id":"ChIJ_SXZIvh1nkcR2Me-3sEP--c"}
{"name":"Pizza Bello, C\u00fcneyt Kumas","address":"Lassallestra\u00dfe 99, M\u00fcnchen","lat":48.1980039,"lon":11.535015,"rating":3.4,"place_id":"ChIJp7pbFOh2nkcROwxf4Jx-YMQ"}
{"name":"Pizza La Gondola","address":"Schlei\u00dfheimer Str. 297, M\u00fcnchen","lat":48.1830173,"lon":11.5664303,"rating":3.6,"place_id":"ChIJU7FZZIJ2nkcRxGl3GM6X4Jc"}
{"name":"Lerchen Kebap Haus","address":"Lerchenstra\u00dfe 5, M\u00fcnchen","lat":48.2010802,"lon":11.5434199,"rating":3.9,"place_id":"ChIJLYvZQhF3nkcRQOnaNaoxXPo"}
{"name":"Oliviva","address":"Hanauer Str. 68, M\u00fcnchen","lat":48.1834023,"lon":11.5346691,"rating":4.0,"place_id":"ChIJ8whlHfR2nkcRes1dPmPooU0"}
{"name":"LOKO'S D\u00d6NER","address":"Schlei\u00dfheimer Str. 506, M\u00fcnchen","lat":48.2123772,"lon":11.5642355,"rating":4.3,"place_id":"ChIJw1dIObJ2nkcRXWOvefx57_k"}
{"name":"D\u00f6ner kebab","address":"Walter-Sedlmayr-Platz 6, M\u00fcnchen","lat":48.21371,"lon":11.5405425,"rating":3.1,"place_id":"ChIJ01qlVL53nkcRocFbFYxUAcI"}
{"name":"D\u00f6ner King","address":"Schlei\u00dfheimer Str. 411A, M\u00fcnchen","lat":48.2036778,"lon":11.5635366,"rating":3.0,"place_id":"ChIJzVN716R2nkcR5S7aS9Py80Q"}
{"name":"EssPoint Pide & Grill M\u00fcnchen","address":"Schlei\u00dfheimer Str. 415, M\u00fcnchen","lat":48.204325,"lon":11.5633854,"rating":4.1,"place_id":"ChIJx3B25lp3nkcRbZ4zQaGytVQ"}
{"name":"Sultan Backparadies GmbH","address":"Neuherbergstra\u00dfe 117, M\u00fcnchen","lat":48.2084608,"lon":11.563739,"rating":4.3,"place_id":"ChIJFT1ZMbB2nkcRuVwmLsUPw8g"}
{"name":"Kebap | Pide | Burger","address":"Schlei\u00dfheimer Str. 443, M\u00fcnchen","lat":48.2081848,"lon":11.5627805,"rating":4.5,"place_id":"ChIJozOTfFd3nkcRWRyh6YknnvI"}
{"name":"Mazagan Tacos","address":"Schlei\u00dfheimer Str. 411 A, M\u00fcnchen","lat":48.2036505,"lon":11.5634392,"rating":3.8,"place_id":"ChIJdyBicR93nkcRomzsH_eZe94"}
{"name":"Kapadokya Pide - Grill","address":"Schlei\u00dfheimer Str. 442, M\u00fcnchen","lat":48.2027709,"lon":11.5644371,"rating":4.6,"place_id":"ChIJtf-R7KR2nkcRNQcbGdgdMHk"}
{"name":"Imbiss","address":"Mittenheimer Str. 54, Oberschlei\u00dfheim","lat":48.2591021,"lon":11.5575984,"rating":2.2,"place_id":"ChIJxw7IaahxnkcR-hKSLgkyZIo"}
{"name":"Beste Food","address":"Eschenstra\u00dfe 26, Taufkirchen","lat":48.0514649,"lon":11.6080514,"rating":3.9,"place_id":"ChIJdaSPlvzfnUcRaGCGMgs9fL8"}
{"name":"Moe\u2018s Wanted","address":"Hauptstra\u00dfe 34, Unterhaching","lat":48.0614854,"lon":11.615499,"rating":4.7,"place_id":"ChIJuS0oda7fnUcRa-dkGQczkgc"}
{"name":"A la Turka","address":"Bahnhofsweg 5, Unterhaching","lat":48.0656651,"lon":11.6120127,"rating":3.9,"place_id":"ChIJ96OgAhrenUcRJ8b2_Y5R8uQ"}
{"name":"Orients Gem\u00fcse Kebap - D\u00f6ner Unterhaching","address":"M\u00fcnchner Str. 121, Unterhaching","lat":48.0734537,"lon":11.6046561,"rating":4.8,"place_id":"ChIJb84lWz_fnUcRSM__pgYPhFQ"}
{"name":"Balan Imbiss","address":"Balanstra\u00dfe 204, M\u00fcnchen","lat":48.1047335,"lon":11.6048244,"rating":4.1,"place_id":"ChIJ24m6FjbfnUcR_Fu7jciExnQ"}
{"name":"Servus D\u00f6ner","address":"Aschauer Str. 19, M\u00fcnchen","lat":48.1052562,"lon":11.6016619,"rating":5.0,"place_id":"ChIJBx76e-jfnUcRiIX3g6Nro4Q"}
{"name":"Bosporus Kebap Haus","address":"Ohlm\u00fcllerstra\u00dfe 26, M\u00fcnchen","lat":48.1245942,"lon":11.5805405,"rating":4.4,"place_id":"ChIJY54a0fEBCUER-cYFFpDRUHg"}
{"name":"G\u00fcl - Imbiss","address":"Zweibr\u00fcckenstra\u00dfe 4, M\u00fcnchen","lat":48.1336238,"lon":11.5828141,"rating":3.1,"place_id":"ChIJB8XPe2LfnUcRxrYeOuxZDJ0"}
{"name":"Lava - D\u00f6ner, Pide, Pizza","address":"Friedenstra\u00dfe 17, M\u00fcnchen","lat":48.1270345,"lon":11.6066725,"rating":4.4,"place_id":"ChIJRcAgEnHfnUcR9o44cS2bUh0"}
{"name":"Orleans Kebap","address":"Orleansstra\u00dfe 51, M\u00fcnchen","lat":48.1290211,"lon":11.6046161,"rating":4.1,"place_id":"ChIJNUkx04bfnUcR9VJVLio_bAc"}
{"name":"La Casa de Kebab","address":"Rosenheimer Str. 10, M\u00fcnchen","lat":48.1314525,"lon":11.5891122,"rating":4.8,"place_id":"ChIJN8IaEOnfnUcRaPUGyWH9SUg"}
{"name":"Rollo Kebap&Burgerhaus","address":"Ohlm\u00fcllerstra\u00dfe 14, M\u00fcnchen","lat":48.1252823,"lon":11.5794708,"rating":4.7,"place_id":"ChIJz6dXUIXfnUcRptRB7bG8Y28"}
{"name":"Qassap Kebap House","address":"Franziskanerstra\u00dfe 2, M\u00fcnchen","lat":48.1282511,"lon":11.5935463,"rating":3.5,"place_id":"ChIJrcdf6HrfnUcRsjDB23-vpaI"}
{"name":"Berliner D\u00f6ner","address":"Berg-am-Laim-Stra\u00dfe 89, M\u00fcnchen","lat":48.1301628,"lon":11.621518,"rating":4.4,"place_id":"ChIJh1tcwpZ1nkcRstsRT1iXBT8"}
{"name":"Marmaris Kebap","address":"Rosenheimer Str. 90, M\u00fcnchen","lat":48.1266301,"lon":11.5969128,"rating":4.1,"place_id":"ChIJ9zdep3jfnUcRm2LO7SCwZyk"}
{"name":"Tarim Imbiss","address":"Tegernseer Landstra\u00dfe 76, M\u00fcnchen","lat":48.1149603,"lon":11.5791379,"rating":3.9,"place_id":"ChIJbfirp3LfnUcRU4CyS-9VtoU"}
{"name":"Sucukeria","address":"Atelierstra\u00dfe 16, M\u00fcnchen","lat":48.1245636,"lon":11.6061735,"rating":4.2,"place_id":"ChIJKdlryOzfnUcRv_G3dyplgR0"}
{"name":"Kebabi","address":"Berg-am-Laim-Stra\u00dfe 73, M\u00fcnchen","lat":48.1306187,"lon":11.6188302,"rating":4.2,"place_id":"ChIJOaclHYF1nkcRZZP6_RF6nBg"}
{"name":"K&P D\u00f6ner Kebap","address":"Tegernseer Landstra\u00dfe 18, M\u00fcnchen","lat":48.1188716,"lon":11.5831699,"rating":4.1,"place_id":"ChIJSaszZmzfnUcRLU6EICXM-jQ"}
{"name":"D\u00f6ner am V-Markt","address":"St.-Cajetan-Stra\u00dfe, M\u00fcnchen","lat":48.1214723,"lon":11.5979042,"rating":3.9,"place_id":"ChIJjzLRc7zfnUcRxmitSUjtZrA"}
{"name":"Giesinger D\u00f6ner & Grillhaus","address":"Schwanseestra\u00dfe 26, M\u00fcnchen","lat":48.1081034,"lon":11.5954337,"rating":0.0,"place_id":"ChIJuQyvUKHfnUcR--KRYH1nujM"}
{"name":"Gem\u00fcse Kebab im Tal","address":"Tal 14, M\u00fcnchen","lat":48.1359402,"lon":11.5787393,"rating":2.6,"place_id":"ChIJWdmlF_h1nkcRT48g_2YaiwA"}
{"name":"D\u00f6ner & more","address":"Leuchtenbergring 5, M\u00fcnchen","lat":48.1372879,"lon":11.6150974,"rating":3.9,"place_id":"ChIJwcguyWR1nkcR6V2ic5tem80"}
{"name":"OLIVA Food M\u00fcnchner Freiheit","address":"U-Bahn Passagen, M\u00fcnchner Freiheit 7, M\u00fcnchen","lat":48.1622414,"lon":11.5866086,"rating":3.7,"place_id":"ChIJPXNiTxF1nkcRAGLPkA7g4hU"}
{"name":"T\u00dcRKITCH K\u00f6fte & Kebap","address":"Feilitzschstra\u00dfe 2, M\u00fcnchen","lat":48.1615905,"lon":11.5871007,"rating":3.9,"place_id":"ChIJr58y1tN1nkcRdpV2omfNpAU"}
{"name":"FURI'S D\u00d6NER","address":"Effnerpl. 1, M\u00fcnchen","lat":48.1520775,"lon":11.6132289,"rating":4.9,"place_id":"ChIJX9ErXQt1nkcRM0yn_bkDDK4"}
{"name":"D\u00f6ner Kebab","address":"Orlandostra\u00dfe 4-6, M\u00fcnchen","lat":48.1373415,"lon":11.5794228,"rating":4.1,"place_id":"ChIJKUeNsIt1nkcRydiVUjGcl3I"}
{"name":"Estare Restaurant - Cafe - Bar","address":"Echinger Str. 1, M\u00fcnchen","lat":48.1773897,"lon":11.6012757,"rating":4.3,"place_id":"ChIJYfCeKkx0nkcR2yFR6xpGC0Q"}
{"name":"Pascha Restaurant","address":"Ingolst\u00e4dter Str. 1, M\u00fcnchen","lat":48.18473,"lon":11.58429,"rating":3.4,"place_id":"ChIJIXmqgDp0nkcR2WT-YKbLS1g"}
{"name":"Fresh & Spicy","address":"Maria-Probst-Stra\u00dfe 6, M\u00fcnchen","lat":48.1922716,"lon":11.5873957,"rating":3.9,"place_id":"ChIJ9crQBj10nkcR1p8saY0-2KA"}
{"name":"Alis Gem\u00fcse D\u00f6ner","address":"Alfred-Arndt-Stra\u00dfe 1, M\u00fcnchen","lat":48.1827632,"lon":11.5942481,"rating":4.0,"place_id":"ChIJubJN_Eh1nkcReMyGg4_3ct4"}
{"name":"Hans Kebab am Schwabinger Tor","address":"Leopoldstra\u00dfe 182, M\u00fcnchen","lat":48.1732052,"lon":11.5861924,"rating":3.7,"place_id":"ChIJkfbicCx1nkcRGKsQWsO9lxs"}
{"name":"Ariana Kebap & Burger","address":"Max-Bill-Stra\u00dfe 7, M\u00fcnchen","lat":48.187172,"lon":11.5931244,"rating":4.7,"place_id":"ChIJwyODvQR1nkcRPLAN7e57OqE"}
{"name":"Della Terra","address":"Margot-Kalinke-Stra\u00dfe 4, M\u00fcnchen","lat":48.194144,"lon":11.5970946,"rating":4.5,"place_id":"ChIJ3ykUMBV0nkcRm6gmd7JttOA"}
{"name":"Family D\u00f6ner","address":"Kulturheimstra\u00dfe 8, M\u00fcnchen","lat":48.1959801,"lon":11.6198788,"rating":4.4,"place_id":"ChIJXft45GN0nkcRDi0yVpg0VxY"}
{"name":"Kerri Imbiss D\u00f6ner Kebap Cevapcici und mehr","address":"Heidemannstra\u00dfe 37, M\u00fcnchen","lat":48.2016339,"lon":11.5912318,"rating":4.7,"place_id":"ChIJxRUs5QF1nkcRjyCdPzRlnO8"}
{"name":"Freimanner Feinkost","address":"Georg-Wopfner-Stra\u00dfe 62, M\u00fcnchen","lat":48.1931231,"lon":11.6148001,"rating":4.1,"place_id":"ChIJ4SZaBmd0nkcRIQapbwykkbA"}
{"name":"Imbiss grillbar","address":"Muthmannstra\u00dfe 4, M\u00fcnchen","lat":48.2039366,"lon":11.6182173,"rating":3.7,"place_id":"ChIJq9WHUHp0nkcRirnIUSNGPvw"}
{"name":"Erding's Gem\u00fcse Kebab & More","address":"Schlei\u00dfheimer Str. 108a, Garching bei M\u00fcnchen","lat":48.2508838,"lon":11.6142618,"rating":4.8,"place_id":"ChIJd0LzDthznkcRycGBbfrHD94"}
{"name":"Yam Yam","address":"Robert-Bosch-Stra\u00dfe 7, Garching bei M\u00fcnchen","lat":48.2542161,"lon":11.6108157,"rating":4.7,"place_id":"ChIJjbdIjzJynkcRL8aphrmUoes"}
{"name":"ZAYN | Fresh Food","address":"Brunnthal","lat":48.0410928,"lon":11.6617737,"rating":2.7,"place_id":"ChIJmUMejKvnnUcRe4deQlgOFLg"}
{"name":"D\u00f6nerland Hohenbrunn","address":"Rosenheimer Landstra\u00dfe 123, Hohenbrunn","lat":48.0554581,"lon":11.6682962,"rating":4.1,"place_id":"ChIJuzLDwtngnUcRq5exRUrEFCY"}
{"name":"KONAK t\u00fcrkische Spezialit\u00e4ten, D\u00f6ner","address":"Rosenheimer Landstra\u00dfe 27A, Ottobrunn","lat":48.0683918,"lon":11.6587205,"rating":4.3,"place_id":"ChIJ2Y1zf-ngnUcRowMP2I33RqI"}
{"name":"Gustosa Kebap & Grill","address":"Isar Center, Unterhachinger Str. 28, Ottobrunn","lat":48.0633708,"lon":11.649905,"rating":4.6,"place_id":"ChIJBwlJMcDhnUcRMnGprRhfgDs"}
{"name":"Hendl Gl\u00fcck","address":"Ottobrunner Str. 33, Unterhaching","lat":48.0603455,"lon":11.628233,"rating":4.2,"place_id":"ChIJi4U5c6bgnUcR306Tru7HDwA"}
{"name":"Gyros Kebap","address":"Neubiberg","lat":48.0760057,"lon":11.6578281,"rating":4.0,"place_id":"ChIJkcVzgvLgnUcRWHbmt03YlRg"}
{"name":"K\u00f6fte House","address":"Thomas-Dehler-Stra\u00dfe 13, M\u00fcnchen","lat":48.100405,"lon":11.6462773,"rating":3.9,"place_id":"ChIJ76ueBnbhnUcRdV7Ep-jxzEw"}
{"name":"D\u00f6nerstand","address":"Lilienthalstra\u00dfe 40, Neubiberg","lat":48.0827542,"lon":11.6379903,"rating":4.6,"place_id":"ChIJuzU0_4PgnUcRqcMmNDavoow"}
{"name":"D\u00f6nertime im Pep M\u00fcnchen","address":"Thomas-Dehler-Stra\u00dfe 8, M\u00fcnchen","lat":48.10222,"lon":11.64556,"rating":1.6,"place_id":"ChIJLVRNrVnhnUcR0uGaeja_iKg"}
{"name":"# Turbo Grill 1989","address":"Imbiss beim REWE, \u00c4u\u00dfere Hauptstra\u00dfe 3, Neubiberg","lat":48.0760081,"lon":11.6577983,"rating":3.6,"place_id":"ChIJH96M2IThnUcREGZA2Gz_8Dw"}
{"name":"D\u00f6ner&Pizza Like","address":"Sudermannallee 20, M\u00fcnchen","lat":48.099055,"lon":11.653309,"rating":4.2,"place_id":"ChIJhwtm7eThnUcRxBA89FBGFvc"}
{"name":"Ana\u2019s Feinkost-Imbiss D\u00f6ner","address":"Pfanzeltpl. 16, M\u00fcnchen","lat":48.1006529,"lon":11.6302128,"rating":3.3,"place_id":"ChIJK882RNrfnUcRhxclt7sfXD4"}
{"name":"Grill Imbiss D\u00f6ner","address":"Truderinger Str. 252, M\u00fcnchen","lat":48.1252051,"lon":11.6633052,"rating":4.5,"place_id":"ChIJuaiEXB3gnUcRqGCPoH_O57E"}
{"name":"Kebab Corner","address":"Kreillerstra\u00dfe 210, M\u00fcnchen","lat":48.1219667,"lon":11.6618767,"rating":4.4,"place_id":"ChIJWazhSEzhnUcRS3SbQNWdX6A"}
{"name":"\u00d6Z GAZ\u0130ANTEP SOFRAS\u0130","address":"13, Peschelanger 13, M\u00fcnchen","lat":48.1070773,"lon":11.6562318,"rating":4.6,"place_id":"ChIJr3DI_hDhnUcRNmPC1DRGsG0"}
{"name":"Sultan Imbiss","address":"Levelingstra\u00dfe 19, M\u00fcnchen","lat":48.130744,"lon":11.6266172,"rating":4.2,"place_id":"ChIJFYd71l91nkcRQUgiGDzkbDM"}
{"name":"Helinam D\u00f6ner","address":"Truderinger Str. 263, M\u00fcnchen","lat":48.125322,"lon":11.664002,"rating":4.0,"place_id":"ChIJxf-7Zh3gnUcRfMdT0JAMmKo"}
{"name":"Lezz-Et D\u00f6ner M\u00fcnchen","address":"Zehntfeldstra\u00dfe 139, M\u00fcnchen","lat":48.1130791,"lon":11.6510117,"rating":4.3,"place_id":"ChIJkf7Nc4zhnUcRcPz63J7h-Cs"}
{"name":"Gustosa kebap & grill","address":"Kaufland, Berg-am-Laim-Stra\u00dfe 117-125, M\u00fcnchen","lat":48.1295868,"lon":11.6262673,"rating":3.6,"place_id":"ChIJ3WEMO5h1nkcRrTKWm_kiaGw"}
{"name":"Orientalische Grillstube","address":"Truderinger Str. 217, M\u00fcnchen","lat":48.1302527,"lon":11.6508665,"rating":4.4,"place_id":"ChIJNxy4fyZ1nkcRK9l1dwJMnDA"}
{"name":"K\u00f6fte House","address":"Albert-Schweitzer-Stra\u00dfe 62, M\u00fcnchen","lat":48.1072618,"lon":11.6458429,"rating":4.4,"place_id":"ChIJVVVlzXTgnUcRsdHEOddnhVE"}
{"name":"Moosfelder D\u00f6ner und Grill Haus","address":"Valentin-Linhof-Stra\u00dfe 12, M\u00fcnchen","lat":48.1368969,"lon":11.6640943,"rating":4.4,"place_id":"ChIJ9VYQ8zcLnkcRiahVbL7rPKk"}
{"name":"Anatolia Pizza & D\u00f6ner Heimservice","address":"Alt\u00f6ttinger Str. 33, M\u00fcnchen","lat":48.1266508,"lon":11.6212971,"rating":4.4,"place_id":"ChIJv20vEYvfnUcReQJPCbG6ivY"}
{"name":"Grillstation G\u00fck\u00fcko","address":"B304 25, M\u00fcnchen","lat":48.1275398,"lon":11.634665,"rating":3.4,"place_id":"ChIJa6WYprDfnUcR2SkThaCe6Sk"}
{"name":"Kebaphaus 24","address":"Freisch\u00fctzstra\u00dfe 10, M\u00fcnchen","lat":48.1581512,"lon":11.6422265,"rating":4.8,"place_id":"ChIJv6j_jwV1nkcRDMUCpE4cLBs"}
{"name":"My Efsane Simit Cafe & Efsane D\u00f6ner","address":"Friedrich-Eckart-Stra\u00dfe 62, M\u00fcnchen","lat":48.14614,"lon":11.64028,"rating":3.4,"place_id":"ChIJxSAPHrd1nkcRa_0TqLWbdBo"}
{"name":"Vita Pizza Burger D\u00f6ner","address":"F\u00fcrkhofstra\u00dfe 5, M\u00fcnchen","lat":48.1684311,"lon":11.6346532,"rating":3.5,"place_id":"ChIJZ7oABR51nkcRMLs1nhFyMBU"}
{"name":"GRILLstation JK","address":"Freisch\u00fctzstra\u00dfe 90, M\u00fcnchen","lat":48.1676006,"lon":11.6456476,"rating":4.5,"place_id":"ChIJFRr9gCB1nkcR-Yi6l1OhUvc"}
{"name":"Avaya Pizzeria und Kebap","address":"Freisch\u00fctzstra\u00dfe 14, M\u00fcnchen","lat":48.1584517,"lon":11.6422982,"rating":4.5,"place_id":"ChIJgxrRnAt1nkcRGQc7ppb30iQ"}
{"name":"Gourmet Ecke Unterf\u00f6hring","address":"Feringastra\u00dfe 15, Unterf\u00f6hring","lat":48.1785364,"lon":11.6358884,"rating":4.3,"place_id":"ChIJ04S8juV0nkcRcuqSwYE9pf4"}
{"name":"Drah Di","address":"M\u00fcnchner Str. 76, Unterf\u00f6hring","lat":48.1933683,"lon":11.6416044,"rating":4.1,"place_id":"ChIJMbsKlSN1nkcREsOtG7syvN0"}
{"name":"Antalya Restaurant","address":"Sondermeierstra\u00dfe 105, M\u00fcnchen","lat":48.1959978,"lon":11.6282151,"rating":3.9,"place_id":"ChIJiZ1dvYl0nkcRH09YeEVFabQ"}
{"name":"Abou Nur D\u00f6ner","address":"Freisinger Landstra\u00dfe 39, Garching bei M\u00fcnchen","lat":48.2551033,"lon":11.6537784,"rating":4.5,"place_id":"ChIJ-9sDTcJznkcRT9_wQRdEIRY"}
{"name":"Campus Imbiss","address":"Parkring 14, Garching bei M\u00fcnchen","lat":48.2512826,"lon":11.6368373,"rating":5.0,"place_id":"ChIJMdy9yKhznkcRY5wpj0X_pnU"}
{"name":"Kebaphaus Garching","address":"Garching","lat":48.2472045,"lon":11.6499895,"rating":4.3,"place_id":"ChIJaTT8MgBznkcRmifPdyWJtxQ"}
{"name":"\u015eahin Kebap Haus","address":"Auweg 2, Garching bei M\u00fcnchen","lat":48.2472392,"lon":11.6501449,"rating":5.0,"place_id":"ChIJVyhmIx1znkcRXzjkx8R69HY"}
{"name":"Orient Imbiss - D\u00f6ner & mehr","address":"Schlei\u00dfheimer Str. 28b, Garching bei M\u00fcnchen","lat":48.2499654,"lon":11.6470977,"rating":4.3,"place_id":"ChIJMz0AZlVynkcRjIjd0mXC7js"}
{"name":"Abou Nur Imbiss","address":"M\u00fcnchener Str. 46, Garching bei M\u00fcnchen","lat":48.2447061,"lon":11.6468601,"rating":4.4,"place_id":"ChIJF8evxgBznkcRRt8YCDKwXvs"}
{"name":"Mistik Kebab","address":"Dieselstra\u00dfe 22, Garching bei M\u00fcnchen","lat":48.2541162,"lon":11.6234937,"rating":4.7,"place_id":"ChIJ3WD9cEpynkcRvVHQZCSuKlE"}
{"name":"Pizza Taxi Garching","address":"Rathauspl. 4, Garching bei M\u00fcnchen","lat":48.2510466,"lon":11.6514208,"rating":3.3,"place_id":"ChIJXcC4HP9ynkcRC8iX9MfDRgQ"}
{"name":"Methi Indian Restaurant","address":"M\u00fcnchner Str. 26A, H\u00f6henkirchen-Siegertsbrunn","lat":48.0211486,"lon":11.7063821,"rating":4.7,"place_id":"ChIJk9qn4KHmnUcREz3uWLp6C_8"}
{"name":"Starlive 2 D\u00f6ner & Laden","address":"Roseggerstra\u00dfe 55, Ottobrunn","lat":48.0634693,"lon":11.6791256,"rating":3.9,"place_id":"ChIJV1iqLiDhnUcRYJ1Z8eKIiYU"}
{"name":"Ottoman Kebap Haus","address":"Am Brunneck 4, Ottobrunn","lat":48.0694829,"lon":11.6770514,"rating":4.6,"place_id":"ChIJ9y43H-LgnUcRwsSQxBvhk_Q"}
{"name":"The Mediterranean","address":"Putzbrunner Str. 134, Ottobrunn","lat":48.072634,"lon":11.6918152,"rating":4.4,"place_id":"ChIJYSxiANHhnUcRJUNJArKlbNU"}
{"name":"D\u00f6ner laden Hellbast kebap-haus","address":"Hugo-Weiss-Stra\u00dfe 6, M\u00fcnchen","lat":48.1123317,"lon":11.676339,"rating":4.5,"place_id":"ChIJayutKznhnUcRmxUIoAmHiZY"}
{"name":"Cafe-Bar-Pizza","address":"Maria-Montessori-Stra\u00dfe 20, M\u00fcnchen","lat":48.1314179,"lon":11.6967922,"rating":4.2,"place_id":"ChIJpWvu64UKnkcR-0PWtqzVX20"}
{"name":"Imbiss - Grillhendl, D\u00f6ner Kebap","address":"Kirchtruderinger Str. 24, M\u00fcnchen","lat":48.1254292,"lon":11.6745184,"rating":4.8,"place_id":"ChIJQyRCHqgLnkcRf79uxOLouEk"}
{"name":"Gustosa D\u00f6ner","address":"Willy-Brandt-Platz 4, M\u00fcnchen","lat":48.1319677,"lon":11.6914225,"rating":3.3,"place_id":"ChIJBbjKIucLnkcR_x0fms0k5lo"}
{"name":"kapuziner grill","address":"Feldbergstra\u00dfe 90, M\u00fcnchen","lat":48.1174812,"lon":11.6698308,"rating":1.8,"place_id":"ChIJ-ZUD-BjgnUcRqeEmWNdWMj0"}
{"name":"Efe D\u00f6ner Produktion Gmbh","address":"Am Mitterfeld 8, M\u00fcnchen","lat":48.1264765,"lon":11.6743528,"rating":0.0,"place_id":"ChIJq6raNaAKnkcRkIRGoNvyaTk"}
{"name":"D\u00f6ner Pizza Riem","address":"Lehrer-Wirth-Stra\u00dfe 23, M\u00fcnchen","lat":48.1292299,"lon":11.6943435,"rating":2.0,"place_id":"ChIJrTZynlALnkcRqnWJT3hAX_4"}
{"name":"ZAYN Fresh Food","address":"Truderinger Str. 295, M\u00fcnchen","lat":48.122278,"lon":11.6697769,"rating":3.7,"place_id":"ChIJGXBBR0LhnUcRqts3sRxu6bM"}
{"name":"Merhaba Kebap-Oase","address":"Usambarastra\u00dfe 11, M\u00fcnchen","lat":48.1124246,"lon":11.7031626,"rating":4.5,"place_id":"ChIJEdR6ApjhnUcRRqBFDwKw0Mk"}
{"name":"Lezizel Manti - T\u00fcrkische Maultaschen","address":"Willy-Brandt-Platz 5, M\u00fcnchen","lat":48.1321748,"lon":11.6899399,"rating":4.6,"place_id":"ChIJtxFNs5oKnkcRlFpVhgrYROU"}
{"name":"Pizza M\u00f6vin","address":"Truderinger Str. 318, M\u00fcnchen","lat":48.1213662,"lon":11.6716736,"rating":4.3,"place_id":"ChIJ2egjFx_gnUcR4lVjqYpBvgg"}
{"name":"Sermin\u2019s Kebap & More","address":"Martin-Festl-Ring 18, Aschheim","lat":48.1537412,"lon":11.6900972,"rating":4.9,"place_id":"ChIJ96fbHNcLnkcRaIbpEAmnaio"}
{"name":"Le's Family","address":"Bahnhofstra\u00dfe 1, Aschheim","lat":48.1470409,"lon":11.684678,"rating":4.8,"place_id":"ChIJG_K_d-oKnkcRTYR8psSgL0Y"}
{"name":"Aydin Imbiss","address":"M\u00fcnchner Str. 53, Ismaning","lat":48.2242126,"lon":11.6697607,"rating":4.6,"place_id":"ChIJ6aSB1KdznkcR5PLBoQkno60"}
{"name":"isa's imbiss","address":"Bahnhofstra\u00dfe 20, Ismaning","lat":48.2249352,"lon":11.6724611,"rating":3.6,"place_id":"ChIJz0xm7ztznkcRTTCUOCU_u_s"}
{"name":"Bakery Ismaning","address":"Bahnhofpl. 5, Ismaning","lat":48.2261558,"lon":11.678556,"rating":4.6,"place_id":"ChIJU3YJ8zdznkcR3fnolskThM8"}
{"name":"Gourmet Imbiss","address":"Boltzmannstra\u00dfe 11, Garching bei M\u00fcnchen","lat":48.2640867,"lon":11.6707388,"rating":2.2,"place_id":"ChIJr-zz_OxynkcRF4Oyo_JCEDw"}
{"name":"Sehri Imbiss","address":"Bahnhofstra\u00dfe 15, H\u00f6henkirchen-Siegertsbrunn","lat":48.0194224,"lon":11.7155065,"rating":2.8,"place_id":"ChIJ__8b3iHknUcRAVvGAONR9Wc"}
{"name":"Anmol","address":"Rosenheimer Str. 43, H\u00f6henkirchen-Siegertsbrunn","lat":48.0145339,"lon":11.7139045,"rating":4.6,"place_id":"ChIJnVjrtibknUcRnQKS_yAVr9I"}
{"name":"La Bella Sicilia","address":"Bahnhofstra\u00dfe 21, H\u00f6henkirchen-Siegertsbrunn","lat":48.0197073,"lon":11.7194489,"rating":4.6,"place_id":"ChIJfSVZACLknUcR_S5Lg-EGRo4"}
{"name":"Karawan","address":"Haarer Str. 4, Putzbrunn","lat":48.0771911,"lon":11.7154926,"rating":3.7,"place_id":"ChIJjZslhHbhnUcRlIrM4Rm311I"}
{"name":"Pizza Punjabi","address":"Glonner Str. 7a, Putzbrunn","lat":48.077048,"lon":11.713492,"rating":3.9,"place_id":"ChIJoY9WOHThnUcRe03i_xRSDHA"}
{"name":"Kebap Express M\u00fcnchen Haar","address":"Jagdfeldring 91, Haar","lat":48.10792,"lon":11.72324,"rating":4.3,"place_id":"ChIJH673Q-jhnUcRqSPF_7dhQJ4"}
{"name":"Luna de Istanbul","address":"Hans-Stie\u00dfberger-Stra\u00dfe 2-4, Haar","lat":48.1096706,"lon":11.7175305,"rating":3.7,"place_id":"ChIJj22mMcPhnUcRIQcY13lMr0E"}
{"name":"Alis Kebab House","address":"Bahnhofpl. 4C, Haar","lat":48.1108351,"lon":11.7304135,"rating":4.3,"place_id":"ChIJM1wKyeXhnUcRniVV4UMXCDE"}
{"name":"D\u00f6ner Bude","address":"Am Gangsteig, Kirchheim bei M\u00fcnchen","lat":48.1624922,"lon":11.7571444,"rating":3.7,"place_id":"ChIJhTSfqBYLnkcR6twbg7WM3MA"}
{"name":"Imbiss Griechische Spezialit\u00e4ten","address":"Hohenlindner Str. 4, Feldkirchen","lat":48.1471883,"lon":11.7300425,"rating":4.6,"place_id":"ChIJ994rODgKnkcRwMufluxn3mc"}
{"name":"Aschheimer Kebap Imbiss","address":"Herdweg 1, Aschheim","lat":48.1708843,"lon":11.7142438,"rating":4.5,"place_id":"ChIJ0aorxngLnkcRTnWtS090mN0"}
{"name":"Ramo's D\u00f6ner","address":"Karl-B\u00f6hm-Stra\u00dfe 80, Vaterstetten","lat":48.0961612,"lon":11.7859002,"rating":2.5,"place_id":"ChIJSdOQN7LjnUcRnCZQZLYI4tQ"}
{"name":"Bay Adnan Imbiss D\u00f6ner","address":"Bretonischer Ring 1, Grasbrunn","lat":48.1003198,"lon":11.7617351,"rating":4.9,"place_id":"ChIJgXhlth_jnUcRIOn5VCsMRrU"}
{"name":"YAD\u00ca Imbiss","address":"Bahnhofstra\u00dfe 47, Vaterstetten","lat":48.1040758,"lon":11.7655842,"rating":4.5,"place_id":"ChIJKQMmwX3jnUcRBIAfvtBVt2E"}
{"name":"Onba Kebab & More","address":"Rossini-Zentrum, Rossinistra\u00dfe, Vaterstetten","lat":48.105197,"lon":11.7871682,"rating":5.0,"place_id":"ChIJ9UHrjoTjnUcRgbT94MgVFn4"}
{"name":"Pizza Husanti","address":"Neue Poststra\u00dfe 21, Vaterstetten","lat":48.0984095,"lon":11.7876505,"rating":3.9,"place_id":"ChIJ-QC8PWTinUcRYACLOyFNiRc"}
{"name":"Poseidon Baldham","address":"Kastanienweg 8, Vaterstetten","lat":48.0987486,"lon":11.7862918,"rating":4.2,"place_id":"ChIJtetgyWXinUcR00Ctep3qPLY"}
{"name":"Rialto Pizza und D\u00f6ner","address":"Rossinistra\u00dfe 15, Vaterstetten","lat":48.1048537,"lon":11.7875251,"rating":2.9,"place_id":"ChIJreT37XrinUcRs6sG60Vkqgc"}
{"name":"La Piazzetta","address":"Bahnhofpl. 5, Vaterstetten","lat":48.0975008,"lon":11.7857002,"rating":4.5,"place_id":"ChIJ_b6mt8T4CEER9rvmX_H48p8"}
{"name":"Curry 66 D\u00f6ner","address":"Vaterstetten","lat":48.1449355,"lon":11.7838226,"rating":3.4,"place_id":"ChIJmbfNE6cJnkcRBZomjfidtBw"}
{"name":"Curry 62","address":"Posthalterring 22, Vaterstetten","lat":48.1448456,"lon":11.7844864,"rating":3.6,"place_id":"ChIJ4e1PkpkJnkcR50qnenmQMHI"}
{"name":"Emmi's Kebap Haus","address":"Dieselstra\u00dfe 10, Kirchheim bei M\u00fcnchen","lat":48.1763068,"lon":11.7665328,"rating":4.2,"place_id":"ChIJk9fUkRALnkcRpqFdewItLcY"}
{"name":"Sultan Imbiss","address":"Gruber Str. 62A, Poing","lat":48.1695618,"lon":11.7963152,"rating":4.6,"place_id":"ChIJffgnqmsJnkcRUH0OMIJ_CrA"}
{"name":"Harman Pizzeria","address":"M\u00fcnchener Str. 3, Pliening","lat":48.1979404,"lon":11.797309,"rating":2.8,"place_id":"ChIJNXerDq4OnkcR5LLekVLnQCQ"}
{"name":"D\u00f6ner Pirat","address":"Erdinger Str. 7, Finsing","lat":48.2225884,"lon":11.8036695,"rating":4.8,"place_id":"ChIJoZ6t6eIPnkcRw4u_4Rs4g8k"}
